{"nhits": 5973, "parameters": {"dataset": ["open-beer-database@public-us"], "timezone": "UTC", "rows": 10, "format": "json", "facet": ["style_name", "cat_name", "name_breweries", "country"]}, "records": [{"datasetid": "open-beer-database@public-us", "recordid": "21427b5076ea6e6adf0f997b460f0c822b0dcdc9", "fields": {"brewery_id": "842", "city": "Mill Creek", "name": "Porter", "cat_name": "Irish Ale", "country": "United States", "cat_id": "2", "upc": 0, "coordinates": [47.8774, -122.211], "srm": 0, "last_mod": "2010-07-22T20:00:00+00:00", "state": "Washington", "add_user": "0", "abv": 0.0, "address1": "13300 Bothell-Everett Highway #304", "name_breweries": "McMenamins Mill Creek", "style_name": "Porter", "id": "716", "ibu": 0, "style_id": "25"}, "geometry": {"type": "Point", "coordinates": [-122.211, 47.8774]}, "record_timestamp": "2016-09-26T04:21:38.074000+00:00"}, {"datasetid": "open-beer-database@public-us", "recordid": "fdfdfe35eadbab70c6e04bdd758478d6f32c1c87", "fields": {"website": "http://www.diamondknot.com/", "city": "Mukilteo", "style_id": "25", "name": "Possession Porter", "country": "United States", "cat_id": "2", "brewery_id": "445", "upc": 0, "coordinates": [47.9485, -122.305], "ibu": 0, "cat_name": "Irish Ale", "last_mod": "2010-07-22T20:00:00+00:00", "state": "Washington", "style_name": "Porter", "abv": 5.5999999046, "address1": "621 Front Street", "name_breweries": "Diamond Knot Brewery & Alehouse", "srm": 0, "id": "723", "add_user": "0"}, "geometry": {"type": "Point", "coordinates": [-122.305, 47.9485]}, "record_timestamp": "2016-09-26T04:21:38.074000+00:00"}, {"datasetid": "open-beer-database@public-us", "recordid": "d35ea887d84203b2de091e9c3ed26f472c32f691", "fields": {"brewery_id": "1124", "city": "Everett", "name": "Maibock", "cat_name": "German Lager", "country": "United States", "cat_id": "7", "upc": 0, "coordinates": [47.9975, -122.214], "srm": 0, "last_mod": "2010-07-22T20:00:00+00:00", "state": "Washington", "add_user": "0", "abv": 0.0, "address1": "1524 West Marine View Drive", "name_breweries": "Scuttlebutt Brewing", "style_name": "Traditional German-Style Bock", "id": "736", "ibu": 0, "style_id": "90"}, "geometry": {"type": "Point", "coordinates": [-122.214, 47.9975]}, "record_timestamp": "2016-09-26T04:21:38.074000+00:00"}, {"datasetid": "open-beer-database@public-us", "recordid": "c1dbb20896e2e34d726c8d7071ac823e5a419152", "fields": {"brewery_id": "1151", "city": "Mount Vernon", "name": "Free Bike Amber", "cat_name": "North American Ale", "country": "United States", "cat_id": "3", "upc": 0, "coordinates": [48.419200000000004, -122.335], "srm": 0, "last_mod": "2010-07-22T20:00:00+00:00", "state": "Washington", "add_user": "0", "abv": 4.5, "address1": "404 South Third Street", "name_breweries": "Skagit River Brewing", "style_name": "American-Style Amber/Red Ale", "id": "742", "ibu": 0, "style_id": "33"}, "geometry": {"type": "Point", "coordinates": [-122.335, 48.419200000000004]}, "record_timestamp": "2016-09-26T04:21:38.074000+00:00"}, {"datasetid": "open-beer-database@public-us", "recordid": "07724e8b3aef7fdbffbe418c01500a56f5db992d", "fields": {"website": "http://www.independencebrewpub.com/", "city": "Philadelphia", "style_id": "42", "name": "Oatmeal Stout", "country": "United States", "cat_id": "3", "brewery_id": "691", "upc": 0, "coordinates": [39.9526, -75.1594], "ibu": 0, "cat_name": "North American Ale", "last_mod": "2010-07-22T20:00:00+00:00", "state": "Pennsylvania", "style_name": "American-Style Stout", "abv": 0.0, "address1": "1150 Filbert Street", "name_breweries": "Independence Brew Pub", "srm": 0, "id": "961", "add_user": "0"}, "geometry": {"type": "Point", "coordinates": [-75.1594, 39.9526]}, "record_timestamp": "2016-09-26T04:21:38.074000+00:00"}, {"datasetid": "open-beer-database@public-us", "recordid": "a54e626b762d543ca66a2dca7aa6f67a5b748566", "fields": {"brewery_id": "667", "city": "Cham", "name": "Original Pils", "country": "Germany", "cat_id": "-1", "upc": 0, "coordinates": [49.1672, 12.6399], "srm": 0, "last_mod": "2010-07-22T20:00:00+00:00", "state": "Bayern", "add_user": "0", "abv": 0.0, "address1": "Hofmarkstrae 15", "name_breweries": "Hofmark Brauerei", "id": "2005", "ibu": 0, "style_id": "-1"}, "geometry": {"type": "Point", "coordinates": [12.6399, 49.1672]}, "record_timestamp": "2016-09-26T04:21:38.074000+00:00"}, {"datasetid": "open-beer-database@public-us", "recordid": "803cba45f12388a5941d36bf25931497c0fbe800", "fields": {"website": "http://www.cantillon.be/", "city": "Anderlecht", "style_id": "70", "name": "Iris 1996", "country": "Belgium", "cat_id": "5", "brewery_id": "202", "upc": 0, "coordinates": [50.8416, 4.3355], "ibu": 0, "cat_name": "Belgian and French Ale", "last_mod": "2010-07-22T20:00:00+00:00", "state": "Brussel", "style_name": "Belgian-Style Fruit Lambic", "abv": 0.0, "address1": "Gheudestraat 56", "name_breweries": "Brasserie-Brouwerij Cantillon", "srm": 0, "id": "2390", "add_user": "0"}, "geometry": {"type": "Point", "coordinates": [4.3355, 50.8416]}, "record_timestamp": "2016-09-26T04:21:38.074000+00:00"}, {"datasetid": "open-beer-database@public-us", "recordid": "7e3f7010f66a3b6cae5100cf55dbeb5ac02c18db", "fields": {"brewery_id": "1234", "city": "Tampa", "name": "Old Elephant Foot IPA", "cat_name": "North American Ale", "country": "United States", "cat_id": "3", "upc": 0, "coordinates": [27.9607, -82.4433], "srm": 0, "last_mod": "2010-07-22T20:00:00+00:00", "state": "Florida", "add_user": "0", "abv": 0.0, "address1": "1812 North 15th Street", "name_breweries": "Tampa Bay Brewing", "style_name": "American-Style India Pale Ale", "id": "2404", "ibu": 0, "style_id": "31"}, "geometry": {"type": "Point", "coordinates": [-82.4433, 27.9607]}, "record_timestamp": "2016-09-26T04:21:38.074000+00:00"}, {"datasetid": "open-beer-database@public-us", "recordid": "a7d1b45c34876cca1bfcd8822e076be5b55c1968", "fields": {"brewery_id": "387", "city": "Norman", "name": "IPA", "cat_name": "North American Ale", "country": "United States", "cat_id": "3", "upc": 0, "coordinates": [35.2205, -97.4439], "srm": 0, "last_mod": "2010-07-22T20:00:00+00:00", "state": "Oklahoma", "add_user": "0", "abv": 0.0, "address1": "102 West Main", "name_breweries": "Coach's Norman", "style_name": "American-Style India Pale Ale", "id": "2408", "ibu": 0, "style_id": "31"}, "geometry": {"type": "Point", "coordinates": [-97.4439, 35.2205]}, "record_timestamp": "2016-09-26T04:21:38.074000+00:00"}, {"datasetid": "open-beer-database@public-us", "recordid": "48dce4ae0e1798f1323347ce26fadb1bfcb7c7e5", "fields": {"brewery_id": "1106", "city": "Santa Barbara", "name": "Pacific Pale", "cat_name": "North American Ale", "country": "United States", "cat_id": "3", "upc": 0, "coordinates": [34.4166, -119.696], "srm": 0, "last_mod": "2010-07-22T20:00:00+00:00", "state": "California", "add_user": "0", "abv": 0.0, "address1": "501 State Street", "name_breweries": "Santa Barbara Brewing", "style_name": "American-Style Pale Ale", "id": "2423", "ibu": 0, "style_id": "26"}, "geometry": {"type": "Point", "coordinates": [-119.696, 34.4166]}, "record_timestamp": "2016-09-26T04:21:38.074000+00:00"}], "facet_groups": [{"facets": [{"count": 57, "path": "Midnight Sun Brewing Co.", "state": "displayed", "name": "Midnight Sun Brewing Co."}, {"count": 49, "path": "Rogue Ales", "state": "displayed", "name": "Rogue Ales"}, {"count": 42, "path": "Pyramid Alehouse, Brewery and Restaurant - Berkeley", "state": "displayed", "name": "Pyramid Alehouse, Brewery and Restaurant - Berkeley"}, {"count": 38, "path": "Anheuser-Busch", "state": "displayed", "name": "Anheuser-Busch"}, {"count": 37, "path": "Egan Brewing", "state": "displayed", "name": "Egan Brewing"}, {"count": 37, "path": "Troegs Brewing", "state": "displayed", "name": "Troegs Brewing"}, {"count": 36, "path": "Boston Beer Company", "state": "displayed", "name": "Boston Beer Company"}, {"count": 34, "path": "F.X. Matt Brewing", "state": "displayed", "name": "F.X. Matt Brewing"}, {"count": 34, "path": "Titletown Brewing", "state": "displayed", "name": "Titletown Brewing"}, {"count": 33, "path": "Sierra Nevada Brewing Co.", "state": "displayed", "name": "Sierra Nevada Brewing Co."}, {"count": 32, "path": "Stone Brewing Co.", "state": "displayed", "name": "Stone Brewing Co."}, {"count": 31, "path": "Southern Tier Brewing Co", "state": "displayed", "name": "Southern Tier Brewing Co"}, {"count": 30, "path": "Weyerbacher Brewing Company", "state": "displayed", "name": "Weyerbacher Brewing Company"}, {"count": 28, "path": "Goose Island Beer Company - Clybourn", "state": "displayed", "name": "Goose Island Beer Company - Clybourn"}, {"count": 28, "path": "Gottberg Brew Pub", "state": "displayed", "name": "Gottberg Brew Pub"}, {"count": 27, "path": "Appalachian Brewing Company", "state": "displayed", "name": "Appalachian Brewing Company"}, {"count": 27, "path": "Dogfish Head Craft Brewery", "state": "displayed", "name": "Dogfish Head Craft Brewery"}, {"count": 25, "path": "Bell's Brewery Inc.", "state": "displayed", "name": "Bell's Brewery Inc."}, {"count": 25, "path": "Victory Brewing", "state": "displayed", "name": "Victory Brewing"}, {"count": 22, "path": "Deschutes Brewery", "state": "displayed", "name": "Deschutes Brewery"}, {"count": 21, "path": "New Glarus Brewing Company", "state": "displayed", "name": "New Glarus Brewing Company"}, {"count": 21, "path": "Otto's Pub and Brewery", "state": "displayed", "name": "Otto's Pub and Brewery"}, {"count": 20, "path": "Abita Brewing Company", "state": "displayed", "name": "Abita Brewing Company"}, {"count": 20, "path": "Capital Brewery", "state": "displayed", "name": "Capital Brewery"}, {"count": 20, "path": "Great Divide Brewing", "state": "displayed", "name": "Great Divide Brewing"}, {"count": 20, "path": "The Livery", "state": "displayed", "name": "The Livery"}, {"count": 19, "path": "Anchor Brewing", "state": "displayed", "name": "Anchor Brewing"}, {"count": 19, "path": "Empyrean Brewing Company", "state": "displayed", "name": "Empyrean Brewing Company"}, {"count": 19, "path": "Lakefront Brewery", "state": "displayed", "name": "Lakefront Brewery"}, {"count": 19, "path": "Magic Hat", "state": "displayed", "name": "Magic Hat"}, {"count": 19, "path": "Middle Ages Brewing", "state": "displayed", "name": "Middle Ages Brewing"}, {"count": 18, "path": "Amherst Brewing Company", "state": "displayed", "name": "Amherst Brewing Company"}, {"count": 18, "path": "Saint Louis Brewery / Schlafy Tap Room", "state": "displayed", "name": "Saint Louis Brewery / Schlafy Tap Room"}, {"count": 17, "path": "De Proef Brouwerij", "state": "displayed", "name": "De Proef Brouwerij"}, {"count": 17, "path": "Great Dane Pub and Brewing #1", "state": "displayed", "name": "Great Dane Pub and Brewing #1"}, {"count": 17, "path": "Hoppin Frog Brewery", "state": "displayed", "name": "Hoppin Frog Brewery"}, {"count": 17, "path": "Michigan Brewing", "state": "displayed", "name": "Michigan Brewing"}, {"count": 17, "path": "Thirsty Dog Brewing", "state": "displayed", "name": "Thirsty Dog Brewing"}, {"count": 17, "path": "Thunderhead Brewery", "state": "displayed", "name": "Thunderhead Brewery"}, {"count": 16, "path": "Appleton Brewing", "state": "displayed", "name": "Appleton Brewing"}, {"count": 16, "path": "Breckenridge Brewery", "state": "displayed", "name": "Breckenridge Brewery"}, {"count": 16, "path": "Fish Brewing Company & Fish Tail Brewpub", "state": "displayed", "name": "Fish Brewing Company & Fish Tail Brewpub"}, {"count": 16, "path": "Flying Dog Brewery", "state": "displayed", "name": "Flying Dog Brewery"}, {"count": 16, "path": "Four Peaks Brewing", "state": "displayed", "name": "Four Peaks Brewing"}, {"count": 16, "path": "Lancaster Brewing Co.", "state": "displayed", "name": "Lancaster Brewing Co."}, {"count": 16, "path": "Nebraska Brewing Company", "state": "displayed", "name": "Nebraska Brewing Company"}, {"count": 16, "path": "Port Brewing Company", "state": "displayed", "name": "Port Brewing Company"}, {"count": 16, "path": "The Alchemist", "state": "displayed", "name": "The Alchemist"}, {"count": 16, "path": "Unibroue", "state": "displayed", "name": "Unibroue"}, {"count": 15, "path": "Clipper City Brewing Co.", "state": "displayed", "name": "Clipper City Brewing Co."}, {"count": 15, "path": "New Belgium Brewing", "state": "displayed", "name": "New Belgium Brewing"}, {"count": 15, "path": "North Coast Brewing Company", "state": "displayed", "name": "North Coast Brewing Company"}, {"count": 15, "path": "Three Floyds Brewing", "state": "displayed", "name": "Three Floyds Brewing"}, {"count": 15, "path": "Upstream Brewing Old Market", "state": "displayed", "name": "Upstream Brewing Old Market"}, {"count": 14, "path": "Founders Brewing", "state": "displayed", "name": "Founders Brewing"}, {"count": 14, "path": "Goose Island Beer Company - Fulton Street", "state": "displayed", "name": "Goose Island Beer Company - Fulton Street"}, {"count": 14, "path": "JT Whitney's Brewpub and Eatery", "state": "displayed", "name": "JT Whitney's Brewpub and Eatery"}, {"count": 14, "path": "JW Lees and Co (Brewers) Ltd.", "state": "displayed", "name": "JW Lees and Co (Brewers) Ltd."}, {"count": 14, "path": "Jacob Leinenkugel Brewing Company", "state": "displayed", "name": "Jacob Leinenkugel Brewing Company"}, {"count": 14, "path": "Lagunitas Brewing Company", "state": "displayed", "name": "Lagunitas Brewing Company"}, {"count": 14, "path": "New Holland Brewing Company", "state": "displayed", "name": "New Holland Brewing Company"}, {"count": 14, "path": "N\u00c3\u00b8gne \u00c3\u02dc - Det Kompromissl\u00c3\u00b8se Bryggeri A/S", "state": "displayed", "name": "N\u00c3\u00b8gne \u00c3\u02dc - Det Kompromissl\u00c3\u00b8se Bryggeri A/S"}, {"count": 14, "path": "Sprecher Brewing", "state": "displayed", "name": "Sprecher Brewing"}, {"count": 14, "path": "Steamworks", "state": "displayed", "name": "Steamworks"}, {"count": 13, "path": "Arcadia Brewing", "state": "displayed", "name": "Arcadia Brewing"}, {"count": 13, "path": "Atwater Block Brewing", "state": "displayed", "name": "Atwater Block Brewing"}, {"count": 13, "path": "Avery Brewing Company", "state": "displayed", "name": "Avery Brewing Company"}, {"count": 13, "path": "Boulevard Brewing Company", "state": "displayed", "name": "Boulevard Brewing Company"}, {"count": 13, "path": "BridgePort Brewing", "state": "displayed", "name": "BridgePort Brewing"}, {"count": 13, "path": "Crane River Brewpub and Cafe", "state": "displayed", "name": "Crane River Brewpub and Cafe"}, {"count": 13, "path": "Dragonmead Microbrewery", "state": "displayed", "name": "Dragonmead Microbrewery"}, {"count": 13, "path": "Fratellos Restaurant and Brewery", "state": "displayed", "name": "Fratellos Restaurant and Brewery"}, {"count": 13, "path": "Gordon Biersch Brewing", "state": "displayed", "name": "Gordon Biersch Brewing"}, {"count": 13, "path": "Green Bay Brewing", "state": "displayed", "name": "Green Bay Brewing"}, {"count": 13, "path": "Jolly Pumpkin Artisan Ales", "state": "displayed", "name": "Jolly Pumpkin Artisan Ales"}, {"count": 13, "path": "Rahr & Sons Brewing Company", "state": "displayed", "name": "Rahr & Sons Brewing Company"}, {"count": 13, "path": "River West Brewing", "state": "displayed", "name": "River West Brewing"}, {"count": 13, "path": "Sly Fox Brewhouse and Eatery - Royersford", "state": "displayed", "name": "Sly Fox Brewhouse and Eatery - Royersford"}, {"count": 13, "path": "Terrapin Beer Company", "state": "displayed", "name": "Terrapin Beer Company"}, {"count": 13, "path": "Tyranena Brewing", "state": "displayed", "name": "Tyranena Brewing"}, {"count": 12, "path": "Boulder Beer Company", "state": "displayed", "name": "Boulder Beer Company"}, {"count": 12, "path": "BrewDog Ltd", "state": "displayed", "name": "BrewDog Ltd"}, {"count": 12, "path": "Brouwerij Van Steenberge", "state": "displayed", "name": "Brouwerij Van Steenberge"}, {"count": 12, "path": "Bull & Bush Pub & Brewery", "state": "displayed", "name": "Bull & Bush Pub & Brewery"}, {"count": 12, "path": "Dick's Brewing", "state": "displayed", "name": "Dick's Brewing"}, {"count": 12, "path": "Elysian Brewery & Public House", "state": "displayed", "name": "Elysian Brewery & Public House"}, {"count": 12, "path": "Great Lakes Brewing", "state": "displayed", "name": "Great Lakes Brewing"}, {"count": 12, "path": "Humboldt Brewing", "state": "displayed", "name": "Humboldt Brewing"}, {"count": 12, "path": "Kulmbacher Brauerei AG", "state": "displayed", "name": "Kulmbacher Brauerei AG"}, {"count": 12, "path": "Labatt Ontario Breweries", "state": "displayed", "name": "Labatt Ontario Breweries"}, {"count": 12, "path": "Minneapolis Town Hall Brewery", "state": "displayed", "name": "Minneapolis Town Hall Brewery"}, {"count": 12, "path": "Paulaner", "state": "displayed", "name": "Paulaner"}, {"count": 12, "path": "Pyramid Ales Brewery", "state": "displayed", "name": "Pyramid Ales Brewery"}, {"count": 12, "path": "Redhook Ale Brewery", "state": "displayed", "name": "Redhook Ale Brewery"}, {"count": 12, "path": "Russian River Brewing", "state": "displayed", "name": "Russian River Brewing"}, {"count": 11, "path": "21st Amendment Brewery Cafe", "state": "displayed", "name": "21st Amendment Brewery Cafe"}, {"count": 11, "path": "Alaskan Brewing", "state": "displayed", "name": "Alaskan Brewing"}, {"count": 11, "path": "Big Time Brewing", "state": "displayed", "name": "Big Time Brewing"}, {"count": 11, "path": "Brooklyn Brewery", "state": "displayed", "name": "Brooklyn Brewery"}, {"count": 11, "path": "Coors Brewing - Golden Brewery", "state": "displayed", "name": "Coors Brewing - Golden Brewery"}], "name": "name_breweries"}, {"facets": [{"count": 4588, "path": "United States", "state": "displayed", "name": "United States"}, {"count": 330, "path": "Belgium", "state": "displayed", "name": "Belgium"}, {"count": 305, "path": "Germany", "state": "displayed", "name": "Germany"}, {"count": 210, "path": "United Kingdom", "state": "displayed", "name": "United Kingdom"}, {"count": 161, "path": "Canada", "state": "displayed", "name": "Canada"}, {"count": 29, "path": "Netherlands", "state": "displayed", "name": "Netherlands"}, {"count": 25, "path": "Austria", "state": "displayed", "name": "Austria"}, {"count": 25, "path": "Switzerland", "state": "displayed", "name": "Switzerland"}, {"count": 24, "path": "Australia", "state": "displayed", "name": "Australia"}, {"count": 22, "path": "Norway", "state": "displayed", "name": "Norway"}, {"count": 21, "path": "Japan", "state": "displayed", "name": "Japan"}, {"count": 18, "path": "France", "state": "displayed", "name": "France"}, {"count": 17, "path": "Czech Republic", "state": "displayed", "name": "Czech Republic"}, {"count": 16, "path": "Ireland", "state": "displayed", "name": "Ireland"}, {"count": 15, "path": "India", "state": "displayed", "name": "India"}, {"count": 13, "path": "Mexico", "state": "displayed", "name": "Mexico"}, {"count": 11, "path": "New Zealand", "state": "displayed", "name": "New Zealand"}, {"count": 9, "path": "Poland", "state": "displayed", "name": "Poland"}, {"count": 8, "path": "Italy", "state": "displayed", "name": "Italy"}, {"count": 7, "path": "England", "state": "displayed", "name": "England"}, {"count": 7, "path": "Sweden", "state": "displayed", "name": "Sweden"}, {"count": 6, "path": "Brazil", "state": "displayed", "name": "Brazil"}, {"count": 6, "path": "Denmark", "state": "displayed", "name": "Denmark"}, {"count": 6, "path": "Russia", "state": "displayed", "name": "Russia"}, {"count": 5, "path": "El Salvador", "state": "displayed", "name": "El Salvador"}, {"count": 5, "path": "Spain", "state": "displayed", "name": "Spain"}, {"count": 4, "path": "Argentina", "state": "displayed", "name": "Argentina"}, {"count": 4, "path": "Hungary", "state": "displayed", "name": "Hungary"}, {"count": 4, "path": "Lithuania", "state": "displayed", "name": "Lithuania"}, {"count": 3, "path": "Finland", "state": "displayed", "name": "Finland"}, {"count": 3, "path": "Jamaica", "state": "displayed", "name": "Jamaica"}, {"count": 3, "path": "Korea, Republic of", "state": "displayed", "name": "Korea, Republic of"}, {"count": 3, "path": "Latvia", "state": "displayed", "name": "Latvia"}, {"count": 3, "path": "Panama", "state": "displayed", "name": "Panama"}, {"count": 2, "path": "China", "state": "displayed", "name": "China"}, {"count": 2, "path": "Greece", "state": "displayed", "name": "Greece"}, {"count": 2, "path": "Philippines", "state": "displayed", "name": "Philippines"}, {"count": 2, "path": "Sri Lanka", "state": "displayed", "name": "Sri Lanka"}, {"count": 2, "path": "Thailand", "state": "displayed", "name": "Thailand"}, {"count": 1, "path": "Aruba", "state": "displayed", "name": "Aruba"}, {"count": 1, "path": "Belize", "state": "displayed", "name": "Belize"}, {"count": 1, "path": "Colombia", "state": "displayed", "name": "Colombia"}, {"count": 1, "path": "Croatia", "state": "displayed", "name": "Croatia"}, {"count": 1, "path": "Cuba", "state": "displayed", "name": "Cuba"}, {"count": 1, "path": "Egypt", "state": "displayed", "name": "Egypt"}, {"count": 1, "path": "Estonia", "state": "displayed", "name": "Estonia"}, {"count": 1, "path": "French Polynesia", "state": "displayed", "name": "French Polynesia"}, {"count": 1, "path": "Guatemala", "state": "displayed", "name": "Guatemala"}, {"count": 1, "path": "Honduras", "state": "displayed", "name": "Honduras"}, {"count": 1, "path": "Israel", "state": "displayed", "name": "Israel"}, {"count": 1, "path": "Kenya", "state": "displayed", "name": "Kenya"}, {"count": 1, "path": "Macao", "state": "displayed", "name": "Macao"}, {"count": 1, "path": "Macedonia, the Former Yugoslav Republic of", "state": "displayed", "name": "Macedonia, the Former Yugoslav Republic of"}, {"count": 1, "path": "Mauritius", "state": "displayed", "name": "Mauritius"}, {"count": 1, "path": "Myanmar", "state": "displayed", "name": "Myanmar"}, {"count": 1, "path": "Namibia", "state": "displayed", "name": "Namibia"}, {"count": 1, "path": "Portugal", "state": "displayed", "name": "Portugal"}, {"count": 1, "path": "Sierra Leone", "state": "displayed", "name": "Sierra Leone"}, {"count": 1, "path": "Slovakia", "state": "displayed", "name": "Slovakia"}, {"count": 1, "path": "Taiwan, Province of China", "state": "displayed", "name": "Taiwan, Province of China"}, {"count": 1, "path": "Togo", "state": "displayed", "name": "Togo"}], "name": "country"}, {"facets": [{"count": 527, "path": "American-Style Pale Ale", "state": "displayed", "name": "American-Style Pale Ale"}, {"count": 517, "path": "American-Style Lager", "state": "displayed", "name": "American-Style Lager"}, {"count": 334, "path": "American-Style Stout", "state": "displayed", "name": "American-Style Stout"}, {"count": 305, "path": "American-Style Amber/Red Ale", "state": "displayed", "name": "American-Style Amber/Red Ale"}, {"count": 300, "path": "American-Style India Pale Ale", "state": "displayed", "name": "American-Style India Pale Ale"}, {"count": 267, "path": "Porter", "state": "displayed", "name": "Porter"}, {"count": 248, "path": "American-Style Brown Ale", "state": "displayed", "name": "American-Style Brown Ale"}, {"count": 185, "path": "South German-Style Hefeweizen", "state": "displayed", "name": "South German-Style Hefeweizen"}, {"count": 161, "path": "Traditional German-Style Bock", "state": "displayed", "name": "Traditional German-Style Bock"}, {"count": 133, "path": "Light American Wheat Ale or Lager", "state": "displayed", "name": "Light American Wheat Ale or Lager"}, {"count": 114, "path": "German-Style Oktoberfest", "state": "displayed", "name": "German-Style Oktoberfest"}, {"count": 101, "path": "Imperial or Double India Pale Ale", "state": "displayed", "name": "Imperial or Double India Pale Ale"}, {"count": 79, "path": "Other Belgian-Style Ales", "state": "displayed", "name": "Other Belgian-Style Ales"}, {"count": 77, "path": "American-Style Imperial Stout", "state": "displayed", "name": "American-Style Imperial Stout"}, {"count": 73, "path": "Old Ale", "state": "displayed", "name": "Old Ale"}, {"count": 72, "path": "German-Style Pilsener", "state": "displayed", "name": "German-Style Pilsener"}, {"count": 66, "path": "Scotch Ale", "state": "displayed", "name": "Scotch Ale"}, {"count": 57, "path": "Belgian-Style White", "state": "displayed", "name": "Belgian-Style White"}, {"count": 56, "path": "Fruit Beer", "state": "displayed", "name": "Fruit Beer"}, {"count": 55, "path": "Belgian-Style Fruit Lambic", "state": "displayed", "name": "Belgian-Style Fruit Lambic"}, {"count": 54, "path": "American-Style Light Lager", "state": "displayed", "name": "American-Style Light Lager"}, {"count": 48, "path": "German-Style Schwarzbier", "state": "displayed", "name": "German-Style Schwarzbier"}, {"count": 44, "path": "Belgian-Style Tripel", "state": "displayed", "name": "Belgian-Style Tripel"}, {"count": 42, "path": "Golden or Blonde Ale", "state": "displayed", "name": "Golden or Blonde Ale"}, {"count": 40, "path": "American-Style Barley Wine Ale", "state": "displayed", "name": "American-Style Barley Wine Ale"}, {"count": 36, "path": "Extra Special Bitter", "state": "displayed", "name": "Extra Special Bitter"}, {"count": 34, "path": "English-Style Pale Mild Ale", "state": "displayed", "name": "English-Style Pale Mild Ale"}, {"count": 32, "path": "Oatmeal Stout", "state": "displayed", "name": "Oatmeal Stout"}, {"count": 26, "path": "French & Belgian-Style Saison", "state": "displayed", "name": "French & Belgian-Style Saison"}, {"count": 24, "path": "German-Style Heller Bock/Maibock", "state": "displayed", "name": "German-Style Heller Bock/Maibock"}, {"count": 23, "path": "Irish-Style Red Ale", "state": "displayed", "name": "Irish-Style Red Ale"}, {"count": 23, "path": "Winter Warmer", "state": "displayed", "name": "Winter Warmer"}, {"count": 22, "path": "Dark American-Belgo-Style Ale", "state": "displayed", "name": "Dark American-Belgo-Style Ale"}, {"count": 21, "path": "German-Style Doppelbock", "state": "displayed", "name": "German-Style Doppelbock"}, {"count": 20, "path": "Classic English-Style Pale Ale", "state": "displayed", "name": "Classic English-Style Pale Ale"}, {"count": 19, "path": "Belgian-Style Dubbel", "state": "displayed", "name": "Belgian-Style Dubbel"}, {"count": 19, "path": "South German-Style Weizenbock", "state": "displayed", "name": "South German-Style Weizenbock"}, {"count": 18, "path": "Pumpkin Beer", "state": "displayed", "name": "Pumpkin Beer"}, {"count": 17, "path": "German-Style Brown Ale/Altbier", "state": "displayed", "name": "German-Style Brown Ale/Altbier"}, {"count": 16, "path": "Ordinary Bitter", "state": "displayed", "name": "Ordinary Bitter"}, {"count": 15, "path": "Belgian-Style Pale Strong Ale", "state": "displayed", "name": "Belgian-Style Pale Strong Ale"}, {"count": 14, "path": "American-Style Strong Pale Ale", "state": "displayed", "name": "American-Style Strong Pale Ale"}, {"count": 14, "path": "Belgian-Style Dark Strong Ale", "state": "displayed", "name": "Belgian-Style Dark Strong Ale"}, {"count": 14, "path": "Sweet Stout", "state": "displayed", "name": "Sweet Stout"}, {"count": 13, "path": "American-Style Cream Ale or Lager", "state": "displayed", "name": "American-Style Cream Ale or Lager"}, {"count": 12, "path": "English-Style India Pale Ale", "state": "displayed", "name": "English-Style India Pale Ale"}, {"count": 12, "path": "Special Bitter or Best Bitter", "state": "displayed", "name": "Special Bitter or Best Bitter"}, {"count": 11, "path": "American Rye Ale or Lager", "state": "displayed", "name": "American Rye Ale or Lager"}, {"count": 11, "path": "Herb and Spice Beer", "state": "displayed", "name": "Herb and Spice Beer"}, {"count": 10, "path": "Belgian-Style Quadrupel", "state": "displayed", "name": "Belgian-Style Quadrupel"}, {"count": 9, "path": "Belgian-Style Pale Ale", "state": "displayed", "name": "Belgian-Style Pale Ale"}, {"count": 4, "path": "Baltic-Style Porter", "state": "displayed", "name": "Baltic-Style Porter"}, {"count": 3, "path": "Out of Category", "state": "displayed", "name": "Out of Category"}, {"count": 3, "path": "Scottish-Style Light Ale", "state": "displayed", "name": "Scottish-Style Light Ale"}, {"count": 2, "path": "Strong Ale", "state": "displayed", "name": "Strong Ale"}, {"count": 2, "path": "Vienna-Style Lager", "state": "displayed", "name": "Vienna-Style Lager"}, {"count": 1, "path": "American-Style Dark Lager", "state": "displayed", "name": "American-Style Dark Lager"}, {"count": 1, "path": "American-Style India Black Ale", "state": "displayed", "name": "American-Style India Black Ale"}, {"count": 1, "path": "Bamberg-Style Bock Rauchbier", "state": "displayed", "name": "Bamberg-Style Bock Rauchbier"}, {"count": 1, "path": "Classic Irish-Style Dry Stout", "state": "displayed", "name": "Classic Irish-Style Dry Stout"}, {"count": 1, "path": "English-Style Dark Mild Ale", "state": "displayed", "name": "English-Style Dark Mild Ale"}, {"count": 1, "path": "European Low-Alcohol Lager", "state": "displayed", "name": "European Low-Alcohol Lager"}, {"count": 1, "path": "Foreign (Export)-Style Stout", "state": "displayed", "name": "Foreign (Export)-Style Stout"}, {"count": 1, "path": "Imperial or Double Red Ale", "state": "displayed", "name": "Imperial or Double Red Ale"}, {"count": 1, "path": "Kellerbier - Ale", "state": "displayed", "name": "Kellerbier - Ale"}, {"count": 1, "path": "Smoke Beer", "state": "displayed", "name": "Smoke Beer"}, {"count": 1, "path": "Specialty Beer", "state": "displayed", "name": "Specialty Beer"}, {"count": 1, "path": "Specialty Honey Lager or Ale", "state": "displayed", "name": "Specialty Honey Lager or Ale"}], "name": "style_name"}, {"facets": [{"count": 2014, "path": "North American Ale", "state": "displayed", "name": "North American Ale"}, {"count": 572, "path": "North American Lager", "state": "displayed", "name": "North American Lager"}, {"count": 444, "path": "German Lager", "state": "displayed", "name": "German Lager"}, {"count": 328, "path": "Belgian and French Ale", "state": "displayed", "name": "Belgian and French Ale"}, {"count": 321, "path": "British Ale", "state": "displayed", "name": "British Ale"}, {"count": 290, "path": "Irish Ale", "state": "displayed", "name": "Irish Ale"}, {"count": 271, "path": "Other Style", "state": "displayed", "name": "Other Style"}, {"count": 222, "path": "German Ale", "state": "displayed", "name": "German Ale"}, {"count": 4, "path": "Other Lager", "state": "displayed", "name": "Other Lager"}], "name": "cat_name"}]}